{"businesses":[{"id":"vLbjVhNd73054UVdvOeg7Q","alias":"haidilao-richmond-2","name":"Haidilao","image_url":"https://s3-media3.fl.yelpcdn.com/bphoto/1yp8KpH6sCukurgjRGx3mQ/o.jpg","is_closed":false,"url":"https://www.yelp.com/biz/haidilao-richmond-2?adjust_creative=bYV95bS5H-NQaBwQZNMeSQ&utm_campaign=yelp_api_v3&utm_medium=api_v3_business_search&utm_source=bYV95bS5H-NQaBwQZNMeSQ","review_count":142,"categories":[{"alias":"chinese","title":"Chinese"},{"alias":"hotpot","title":"Hot Pot"},{"alias":"diyfood","title":"Do-It-Yourself Food"}],"rating":4.5,"coordinates":{"latitude":49.17043,"longitude":-123.13633},"transactions":[],"location":{"address1":"5890 No. 3 Road","address2":"Suite 200","address3":"","city":"Richmond","zip_code":"V6Y 0C2","country":"CA","state":"BC","display_address":["5890 No. 3 Road","Suite 200","Richmond, BC V6Y 0C2","Canada"]},"phone":"+16043706665","display_phone":"+1 604-370-6665","distance":3910.862129986849},{"id":"MKY9gfbTIlrKE0uiEr0leA","alias":"kitcho-izakaya-richmond","name":"Kitcho Izakaya","image_url":"https://s3-media1.fl.yelpcdn.com/bphoto/IyiUzhXrU_UmASHXBLcphg/o.jpg","is_closed":false,"url":"https://www.yelp.com/biz/kitcho-izakaya-richmond?adjust_creative=bYV95bS5H-NQaBwQZNMeSQ&utm_campaign=yelp_api_v3&utm_medium=api_v3_business_search&utm_source=bYV95bS5H-NQaBwQZNMeSQ","review_count":65,"categories":[{"alias":"japanese","title":"Japanese"},{"alias":"sushi","title":"Sushi Bars"},{"alias":"seafood","title":"Seafood"}],"rating":4,"coordinates":{"latitude":49.179041,"longitude":-123.1364351},"transactions":[],"price":"$$$","location":{"address1":"4800 No 3 Road","address2":"Suite 133","address3":null,"city":"Richmond","zip_code":"V6X 3A6","country":"CA","state":"BC","display_address":["4800 No 3 Road","Suite 133","Richmond, BC V6X 3A6","Canada"]},"phone":"+16042071188","display_phone":"+1 604-207-1188","distance":4141.730896629292},{"id":"5zaHXBtIQQMw96vveToEZQ","alias":"mr-bro-korean-bistro-and-izakaya-richmond-6","name":"Mr Bro Korean Bistro & Izakaya","image_url":"https://s3-media4.fl.yelpcdn.com/bphoto/s8qrBcKyfMqwLzHfl-hadg/o.jpg","is_closed":false,"url":"https://www.yelp.com/biz/mr-bro-korean-bistro-and-izakaya-richmond-6?adjust_creative=bYV95bS5H-NQaBwQZNMeSQ&utm_campaign=yelp_api_v3&utm_medium=api_v3_business_search&utm_source=bYV95bS5H-NQaBwQZNMeSQ","review_count":60,"categories":[{"alias":"korean","title":"Korean"}],"rating":4.5,"coordinates":{"latitude":49.1781751,"longitude":-123.127902},"transactions":[],"price":"$$","location":{"address1":"8580 Alexandra Road","address2":"Unit 2000","address3":"","city":"Richmond","zip_code":"V6X 4B3","country":"CA","state":"BC","display_address":["8580 Alexandra Road","Unit 2000","Richmond, BC V6X 4B3","Canada"]},"phone":"+16042845596","display_phone":"+1 604-284-5596","distance":4683.739664615985},{"id":"1EwMLL5N5KtdBHRKTvyxow","alias":"sweet-memory-richmond-3","name":"Sweet Memory","image_url":"https://s3-media4.fl.yelpcdn.com/bphoto/bgKctAMnXrP15Mf7X5C7nw/o.jpg","is_closed":false,"url":"https://www.yelp.com/biz/sweet-memory-richmond-3?adjust_creative=bYV95bS5H-NQaBwQZNMeSQ&utm_campaign=yelp_api_v3&utm_medium=api_v3_business_search&utm_source=bYV95bS5H-NQaBwQZNMeSQ","review_count":58,"categories":[{"alias":"desserts","title":"Desserts"},{"alias":"taiwanese","title":"Taiwanese"},{"alias":"chinese","title":"Chinese"}],"rating":4,"coordinates":{"latitude":49.1796164846578,"longitude":-123.134789257818},"transactions":[],"price":"$","location":{"address1":"8080 Leslie Road","address2":"","address3":null,"city":"Richmond","zip_code":"V6X 1E4","country":"CA","state":"BC","display_address":["8080 Leslie Road","Richmond, BC V6X 1E4","Canada"]},"phone":"+16043702882","display_phone":"+1 604-370-2882","distance":4248.805220413479},{"id":"Q4u7W5grwSKZy-suUKhtqw","alias":"no-9-restaurant-richmond-2","name":"No 9 Restaurant","image_url":"https://s3-media3.fl.yelpcdn.com/bphoto/GQoPF9VjJULwQasFU2DeRg/o.jpg","is_closed":false,"url":"https://www.yelp.com/biz/no-9-restaurant-richmond-2?adjust_creative=bYV95bS5H-NQaBwQZNMeSQ&utm_campaign=yelp_api_v3&utm_medium=api_v3_business_search&utm_source=bYV95bS5H-NQaBwQZNMeSQ","review_count":307,"categories":[{"alias":"chinese","title":"Chinese"},{"alias":"asianfusion","title":"Asian Fusion"}],"rating":3,"coordinates":{"latitude":49.1755949810008,"longitude":-123.134402605804},"transactions":[],"price":"$$","location":{"address1":"812-5300 No 3 Road","address2":"","address3":"","city":"Richmond","zip_code":"V6X 2X9","country":"CA","state":"BC","display_address":["812-5300 No 3 Road","Richmond, BC V6X 2X9","Canada"]},"phone":"+16042787700","display_phone":"+1 604-278-7700","distance":4135.620142304184},{"id":"pgyPhwk3lB1DxedDzygUUg","alias":"the-fish-man-richmond","name":"The Fish Man","image_url":"https://s3-media2.fl.yelpcdn.com/bphoto/Jx0MXGmXxmhNM8JEMHPlOw/o.jpg","is_closed":false,"url":"https://www.yelp.com/biz/the-fish-man-richmond?adjust_creative=bYV95bS5H-NQaBwQZNMeSQ&utm_campaign=yelp_api_v3&utm_medium=api_v3_business_search&utm_source=bYV95bS5H-NQaBwQZNMeSQ","review_count":44,"categories":[{"alias":"seafood","title":"Seafood"},{"alias":"chinese","title":"Chinese"},{"alias":"bbq","title":"Barbeque"}],"rating":4,"coordinates":{"latitude":49.1784663,"longitude":-123.1302516},"transactions":[],"location":{"address1":"1170-8391 Alexandra Road","address2":null,"address3":"","city":"Richmond","zip_code":"V6X 1C3","country":"CA","state":"BC","display_address":["1170-8391 Alexandra Road","Richmond, BC V6X 1C3","Canada"]},"phone":"+16042845393","display_phone":"+1 604-284-5393","distance":4546.003374148861},{"id":"RfNSgDWYQXcZd6zqCPIEAQ","alias":"silver-tower-cafe-restaurant-richmond","name":"Silver Tower Cafe Restaurant","image_url":"https://s3-media1.fl.yelpcdn.com/bphoto/5-XFb4NsIdh4t_eGX6cyOA/o.jpg","is_closed":false,"url":"https://www.yelp.com/biz/silver-tower-cafe-restaurant-richmond?adjust_creative=bYV95bS5H-NQaBwQZNMeSQ&utm_campaign=yelp_api_v3&utm_medium=api_v3_business_search&utm_source=bYV95bS5H-NQaBwQZNMeSQ","review_count":99,"categories":[{"alias":"chinese","title":"Chinese"}],"rating":3.5,"coordinates":{"latitude":49.1781781,"longitude":-123.1291034},"transactions":[],"price":"$","location":{"address1":"100 - 8500 Alexandra Road","address2":"","address3":"","city":"Richmond","zip_code":"V6X 3L4","country":"CA","state":"BC","display_address":["100 - 8500 Alexandra Road","Richmond, BC V6X 3L4","Canada"]},"phone":"+16042071199","display_phone":"+1 604-207-1199","distance":4563.758755022975},{"id":"HxCJua7Bsc2RHUyRzRzpsw","alias":"claypot-hot-pot-and-bbq-richmond","name":"Claypot Hot Pot & BBQ","image_url":"https://s3-media2.fl.yelpcdn.com/bphoto/Q-uS4T0eN6OgFcOXAq50LQ/o.jpg","is_closed":false,"url":"https://www.yelp.com/biz/claypot-hot-pot-and-bbq-richmond?adjust_creative=bYV95bS5H-NQaBwQZNMeSQ&utm_campaign=yelp_api_v3&utm_medium=api_v3_business_search&utm_source=bYV95bS5H-NQaBwQZNMeSQ","review_count":87,"categories":[{"alias":"chinese","title":"Chinese"},{"alias":"bbq","title":"Barbeque"},{"alias":"hotpot","title":"Hot Pot"}],"rating":3,"coordinates":{"latitude":49.178598,"longitude":-123.131788},"transactions":[],"price":"$$","location":{"address1":"8291 Alexandra Road","address2":"Unit 105","address3":"","city":"Richmond","zip_code":"V6X 1C3","country":"CA","state":"BC","display_address":["8291 Alexandra Road","Unit 105","Richmond, BC V6X 1C3","Canada"]},"phone":"+16042845181","display_phone":"+1 604-284-5181","distance":4415.184493311107},{"id":"ipHZolIDzXIKfElqrzTTMQ","alias":"cherrys-food-house-richmond","name":"Cherry's Food House","image_url":"https://s3-media3.fl.yelpcdn.com/bphoto/1zfpKamhI4wViLcRjyD9kQ/o.jpg","is_closed":false,"url":"https://www.yelp.com/biz/cherrys-food-house-richmond?adjust_creative=bYV95bS5H-NQaBwQZNMeSQ&utm_campaign=yelp_api_v3&utm_medium=api_v3_business_search&utm_source=bYV95bS5H-NQaBwQZNMeSQ","review_count":30,"categories":[{"alias":"asianfusion","title":"Asian Fusion"},{"alias":"korean","title":"Korean"}],"rating":4,"coordinates":{"latitude":49.1781751,"longitude":-123.1278816},"transactions":[],"location":{"address1":"1015-8580 Alexander Road","address2":null,"address3":"","city":"Richmond","zip_code":"V6X 4B3","country":"CA","state":"BC","display_address":["1015-8580 Alexander Road","Richmond, BC V6X 4B3","Canada"]},"phone":"+17785882000","display_phone":"+1 778-588-2000","distance":4684.169050846549},{"id":"CXkTS1wzIHSC3gE1lkZrMA","alias":"neptune-wonton-noodle-richmond-2","name":"Neptune Wonton Noodle","image_url":"https://s3-media3.fl.yelpcdn.com/bphoto/OwOKiCTGIOKs-tkh-Ja6fg/o.jpg","is_closed":false,"url":"https://www.yelp.com/biz/neptune-wonton-noodle-richmond-2?adjust_creative=bYV95bS5H-NQaBwQZNMeSQ&utm_campaign=yelp_api_v3&utm_medium=api_v3_business_search&utm_source=bYV95bS5H-NQaBwQZNMeSQ","review_count":81,"categories":[{"alias":"chinese","title":"Chinese"}],"rating":3,"coordinates":{"latitude":49.173002,"longitude":-123.135994},"transactions":[],"price":"$$","location":{"address1":"8171 Ackroyd Road","address2":"Suite 110","address3":"","city":"Richmond","zip_code":"V6X 3K1","country":"CA","state":"BC","display_address":["8171 Ackroyd Road","Suite 110","Richmond, BC V6X 3K1","Canada"]},"phone":"+16042079889","display_phone":"+1 604-207-9889","distance":3955.956307209647},{"id":"I5NCVB8uYiYpXg6nfHdnRw","alias":"tang-vietnamese-restaurant-and-bar-richmond-3","name":"Tang Vietnamese Restaurant & Bar","image_url":"https://s3-media1.fl.yelpcdn.com/bphoto/ut8OEZ-a6aqP9pQlpDPOhw/o.jpg","is_closed":false,"url":"https://www.yelp.com/biz/tang-vietnamese-restaurant-and-bar-richmond-3?adjust_creative=bYV95bS5H-NQaBwQZNMeSQ&utm_campaign=yelp_api_v3&utm_medium=api_v3_business_search&utm_source=bYV95bS5H-NQaBwQZNMeSQ","review_count":26,"categories":[{"alias":"vietnamese","title":"Vietnamese"},{"alias":"cocktailbars","title":"Cocktail Bars"}],"rating":4,"coordinates":{"latitude":49.17853,"longitude":-123.12748},"transactions":[],"location":{"address1":"8611 Alexandra Rd","address2":"Unit 170","address3":null,"city":"Richmond","zip_code":"V6X 1C3","country":"CA","state":"BC","display_address":["8611 Alexandra Rd","Unit 170","Richmond, BC V6X 1C3","Canada"]},"phone":"+16042786363","display_phone":"+1 604-278-6363","distance":4710.157399618655},{"id":"fUmCbhF2S-FBcaxgtemaKQ","alias":"happy-tree-house-bbq-richmond","name":"Happy Tree House BBQ","image_url":"https://s3-media2.fl.yelpcdn.com/bphoto/KGNXl4bqUoblJnE17XRN6A/o.jpg","is_closed":false,"url":"https://www.yelp.com/biz/happy-tree-house-bbq-richmond?adjust_creative=bYV95bS5H-NQaBwQZNMeSQ&utm_campaign=yelp_api_v3&utm_medium=api_v3_business_search&utm_source=bYV95bS5H-NQaBwQZNMeSQ","review_count":68,"categories":[{"alias":"bbq","title":"Barbeque"},{"alias":"chinese","title":"Chinese"}],"rating":3,"coordinates":{"latitude":49.1789476669097,"longitude":-123.13367071167},"transactions":[],"price":"$$","location":{"address1":"105 - 8171 Alexandra Road","address2":"","address3":"","city":"Richmond","zip_code":"V6X 1C3","country":"CA","state":"BC","display_address":["105 - 8171 Alexandra Road","Richmond, BC V6X 1C3","Canada"]},"phone":"+17782971386","display_phone":"+1 778-297-1386","distance":4298.894151124673},{"id":"Hh0jcuEatFv7ZFC-L5GuIA","alias":"koto-izakaya-richmond","name":"Koto Izakaya","image_url":"https://s3-media2.fl.yelpcdn.com/bphoto/k5dlHw9i7WLacS1NpaiorQ/o.jpg","is_closed":false,"url":"https://www.yelp.com/biz/koto-izakaya-richmond?adjust_creative=bYV95bS5H-NQaBwQZNMeSQ&utm_campaign=yelp_api_v3&utm_medium=api_v3_business_search&utm_source=bYV95bS5H-NQaBwQZNMeSQ","review_count":67,"categories":[{"alias":"japanese","title":"Japanese"},{"alias":"sushi","title":"Sushi Bars"}],"rating":3,"coordinates":{"latitude":49.1785078,"longitude":-123.1331378},"transactions":[],"price":"$$","location":{"address1":"8171 Alexandra Road","address2":"Suite 101","address3":"","city":"Richmond","zip_code":"V6X 1C3","country":"CA","state":"BC","display_address":["8171 Alexandra Road","Suite 101","Richmond, BC V6X 1C3","Canada"]},"phone":"+16042784601","display_phone":"+1 604-278-4601","distance":4307.241777220638},{"id":"4E7z12k9xFeGjD3apycQHQ","alias":"enjoy-cafe-1-plus1-richmond","name":"Enjoy Cafe 1 Plus1","image_url":"https://s3-media2.fl.yelpcdn.com/bphoto/IWR1QhV1Gj55skMqhNlDdA/o.jpg","is_closed":false,"url":"https://www.yelp.com/biz/enjoy-cafe-1-plus1-richmond?adjust_creative=bYV95bS5H-NQaBwQZNMeSQ&utm_campaign=yelp_api_v3&utm_medium=api_v3_business_search&utm_source=bYV95bS5H-NQaBwQZNMeSQ","review_count":46,"categories":[{"alias":"cafes","title":"Cafes"},{"alias":"chinese","title":"Chinese"}],"rating":3,"coordinates":{"latitude":49.17071,"longitude":-123.13399},"transactions":[],"price":"$$","location":{"address1":"8171 Westminster Highway","address2":"Ste 200","address3":"","city":"Richmond","zip_code":"V6X 1A7","country":"CA","state":"BC","display_address":["8171 Westminster Highway","Ste 200","Richmond, BC V6X 1A7","Canada"]},"phone":"+16042310037","display_phone":"+1 604-231-0037","distance":4042.9811338246272},{"id":"Lo5-InqZGlFynMqdZDBpIw","alias":"manzo-japanese-itamae-richmond","name":"Manzo Japanese Itamae","image_url":"https://s3-media3.fl.yelpcdn.com/bphoto/Vta5YZFhQbhnbhzZkQXUxw/o.jpg","is_closed":false,"url":"https://www.yelp.com/biz/manzo-japanese-itamae-richmond?adjust_creative=bYV95bS5H-NQaBwQZNMeSQ&utm_campaign=yelp_api_v3&utm_medium=api_v3_business_search&utm_source=bYV95bS5H-NQaBwQZNMeSQ","review_count":41,"categories":[{"alias":"japanese","title":"Japanese"}],"rating":3.5,"coordinates":{"latitude":49.1876614377628,"longitude":-123.127475883545},"transactions":[],"price":"$$","location":{"address1":"9020 Capstan Way","address2":"Suite 120","address3":"","city":"Richmond","zip_code":"V6X 1R4","country":"CA","state":"BC","display_address":["9020 Capstan Way","Suite 120","Richmond, BC V6X 1R4","Canada"]},"phone":"+16048219834","display_phone":"+1 604-821-9834","distance":5108.069423466923},{"id":"0HrQwr9H5J9_LnTwD54M2w","alias":"bubble-world-richmond","name":"Bubble World","image_url":"https://s3-media1.fl.yelpcdn.com/bphoto/bi-Wz04mtB7ybzjXx5j4SA/o.jpg","is_closed":false,"url":"https://www.yelp.com/biz/bubble-world-richmond?adjust_creative=bYV95bS5H-NQaBwQZNMeSQ&utm_campaign=yelp_api_v3&utm_medium=api_v3_business_search&utm_source=bYV95bS5H-NQaBwQZNMeSQ","review_count":77,"categories":[{"alias":"taiwanese","title":"Taiwanese"},{"alias":"bubbletea","title":"Bubble Tea"},{"alias":"chinese","title":"Chinese"}],"rating":3,"coordinates":{"latitude":49.1872560855124,"longitude":-123.12964247943},"transactions":[],"price":"$","location":{"address1":"1318-8328 Capstan Way","address2":"","address3":"","city":"Richmond","zip_code":"V6X 2H6","country":"CA","state":"BC","display_address":["1318-8328 Capstan Way","Richmond, BC V6X 2H6","Canada"]},"phone":"+16042325222","display_phone":"+1 604-232-5222","distance":4948.243506169318},{"id":"XXBEzVMsEesTG2se69C5WQ","alias":"tian-shi-fu-no-3-restaurant-richmond","name":"Tian Shi Fu No. 3 Restaurant","image_url":"https://s3-media1.fl.yelpcdn.com/bphoto/hv5hdKuoTtnGqEQyKlJ49A/o.jpg","is_closed":false,"url":"https://www.yelp.com/biz/tian-shi-fu-no-3-restaurant-richmond?adjust_creative=bYV95bS5H-NQaBwQZNMeSQ&utm_campaign=yelp_api_v3&utm_medium=api_v3_business_search&utm_source=bYV95bS5H-NQaBwQZNMeSQ","review_count":14,"categories":[{"alias":"chinese","title":"Chinese"}],"rating":4,"coordinates":{"latitude":49.169274,"longitude":-123.13688},"transactions":[],"location":{"address1":"6111 No. 3 Road","address2":"","address3":null,"city":"Richmond","zip_code":"V6Y 2B1","country":"CA","state":"BC","display_address":["6111 No. 3 Road","Richmond, BC V6Y 2B1","Canada"]},"phone":"+16042389731","display_phone":"+1 604-238-9731","distance":3829.3444469488113},{"id":"vkRP1vfTfksbkliXc5Mv0A","alias":"wendys-richmond-35","name":"Wendy's","image_url":"https://s3-media2.fl.yelpcdn.com/bphoto/b7Dx5jxJv9vUvrJ3o0WX3A/o.jpg","is_closed":false,"url":"https://www.yelp.com/biz/wendys-richmond-35?adjust_creative=bYV95bS5H-NQaBwQZNMeSQ&utm_campaign=yelp_api_v3&utm_medium=api_v3_business_search&utm_source=bYV95bS5H-NQaBwQZNMeSQ","review_count":7,"categories":[{"alias":"hotdogs","title":"Fast Food"},{"alias":"burgers","title":"Burgers"}],"rating":4,"coordinates":{"latitude":49.1955492360529,"longitude":-123.177016438619},"transactions":[],"location":{"address1":"3880 Grant Mcconachie Way","address2":"C-3830, International Food Court","address3":null,"city":"Richmond","zip_code":"V7B 0A5","country":"CA","state":"BC","display_address":["3880 Grant Mcconachie Way","C-3830, International Food Court","Richmond, BC V7B 0A5","Canada"]},"phone":"+16042782862","display_phone":"+1 604-278-2862","distance":3425.705437961648},{"id":"1ljNE10i9F5uUzYRfpm-Qw","alias":"liuyishou-hotpot-richmond-richmond-2","name":"Liuyishou Hotpot Richmond","image_url":"https://s3-media3.fl.yelpcdn.com/bphoto/8KmfPl-eP3Sf8RLaf2ZYaw/o.jpg","is_closed":false,"url":"https://www.yelp.com/biz/liuyishou-hotpot-richmond-richmond-2?adjust_creative=bYV95bS5H-NQaBwQZNMeSQ&utm_campaign=yelp_api_v3&utm_medium=api_v3_business_search&utm_source=bYV95bS5H-NQaBwQZNMeSQ","review_count":27,"categories":[{"alias":"chinese","title":"Chinese"},{"alias":"hotpot","title":"Hot Pot"}],"rating":3,"coordinates":{"latitude":49.17851127364,"longitude":-123.125910800762},"transactions":[],"price":"$$$","location":{"address1":"150-4731 Garden City Road","address2":"","address3":"","city":"Richmond","zip_code":"V6Y 1P9","country":"CA","state":"BC","display_address":["150-4731 Garden City Road","Richmond, BC V6Y 1P9","Canada"]},"phone":"+16042856122","display_phone":"+1 604-285-6122","distance":4818.78522165689},{"id":"KvYnCRZ4BwOAkSDMElHihQ","alias":"sichuan-kungfu-fish-richmond","name":"Sichuan Kungfu Fish","image_url":"https://s3-media1.fl.yelpcdn.com/bphoto/Uc-fk2zgLqH7rJxk0TMIlQ/o.jpg","is_closed":false,"url":"https://www.yelp.com/biz/sichuan-kungfu-fish-richmond?adjust_creative=bYV95bS5H-NQaBwQZNMeSQ&utm_campaign=yelp_api_v3&utm_medium=api_v3_business_search&utm_source=bYV95bS5H-NQaBwQZNMeSQ","review_count":20,"categories":[{"alias":"hotpot","title":"Hot Pot"},{"alias":"chinese","title":"Chinese"},{"alias":"seafood","title":"Seafood"}],"rating":3.5,"coordinates":{"latitude":49.18408,"longitude":-123.13404},"transactions":[],"location":{"address1":"4151 Hazelbridge Way","address2":"","address3":null,"city":"Richmond","zip_code":"V6X 0A4","country":"CA","state":"BC","display_address":["4151 Hazelbridge Way","Richmond, BC V6X 0A4","Canada"]},"phone":"+17789191238","display_phone":"+1 778-919-1238","distance":4534.57020654748},{"id":"fTQ-dRRP2zUpaKti_cHtWg","alias":"mcdonalds-richmond-45","name":"McDonald's","image_url":"https://s3-media4.fl.yelpcdn.com/bphoto/RyqSIhg0LF01kGK-ML744w/o.jpg","is_closed":false,"url":"https://www.yelp.com/biz/mcdonalds-richmond-45?adjust_creative=bYV95bS5H-NQaBwQZNMeSQ&utm_campaign=yelp_api_v3&utm_medium=api_v3_business_search&utm_source=bYV95bS5H-NQaBwQZNMeSQ","review_count":29,"categories":[{"alias":"hotdogs","title":"Fast Food"},{"alias":"burgers","title":"Burgers"},{"alias":"coffee","title":"Coffee & Tea"}],"rating":2.5,"coordinates":{"latitude":49.1775900007224,"longitude":-123.133593928779},"transactions":[],"price":"$","location":{"address1":"8191 Alderbridge Way","address2":"","address3":"","city":"Richmond","zip_code":"V6X 3A9","country":"CA","state":"BC","display_address":["8191 Alderbridge Way","Richmond, BC V6X 3A9","Canada"]},"phone":"+16043701780","display_phone":"+1 604-370-1780","distance":4255.299514030857},{"id":"Zmrs8DCnSdRPjkOZ4DKiPA","alias":"churchs-chicken-richmond-3","name":"Church's Chicken","image_url":"https://s3-media1.fl.yelpcdn.com/bphoto/l8VS7eZ41LqGgirdwlbMuQ/o.jpg","is_closed":false,"url":"https://www.yelp.com/biz/churchs-chicken-richmond-3?adjust_creative=bYV95bS5H-NQaBwQZNMeSQ&utm_campaign=yelp_api_v3&utm_medium=api_v3_business_search&utm_source=bYV95bS5H-NQaBwQZNMeSQ","review_count":29,"categories":[{"alias":"chicken_wings","title":"Chicken Wings"},{"alias":"hotdogs","title":"Fast Food"}],"rating":3,"coordinates":{"latitude":49.1553651,"longitude":-123.1238682},"transactions":[],"price":"$$","location":{"address1":"9100 Blundell Road","address2":"Unit 120","address3":"","city":"Richmond","zip_code":"V6Y 3X9","country":"CA","state":"BC","display_address":["9100 Blundell Road","Unit 120","Richmond, BC V6Y 3X9","Canada"]},"phone":"+16042440318","display_phone":"+1 604-244-0318","distance":4908.429449221434},{"id":"Te2ceHwE9x-lyAiHupT4Pg","alias":"mui-kee-chicken-pot-richmond-3","name":"Mui Kee Chicken Pot","image_url":"https://s3-media4.fl.yelpcdn.com/bphoto/VU18lKyAIHPHBszR7eJ45Q/o.jpg","is_closed":false,"url":"https://www.yelp.com/biz/mui-kee-chicken-pot-richmond-3?adjust_creative=bYV95bS5H-NQaBwQZNMeSQ&utm_campaign=yelp_api_v3&utm_medium=api_v3_business_search&utm_source=bYV95bS5H-NQaBwQZNMeSQ","review_count":6,"categories":[{"alias":"chinese","title":"Chinese"}],"rating":4,"coordinates":{"latitude":49.1785674468399,"longitude":-123.13055677699},"transactions":[],"location":{"address1":"8391 Alexandra Road","address2":"Unit 1120","address3":null,"city":"Richmond","zip_code":"V6X 1C3","country":"CA","state":"BC","display_address":["8391 Alexandra Road","Unit 1120","Richmond, BC V6X 1C3","Canada"]},"phone":"+16043704833","display_phone":"+1 604-370-4833","distance":4498.937672024303},{"id":"i1mK2OCgygRRNQIv9rXc8Q","alias":"pho-hoa-noodle-soup-richmond-2","name":"Pho Hoa Noodle Soup","image_url":"https://s3-media4.fl.yelpcdn.com/bphoto/a1NvgyAjP3D8wcf3Ixn6-A/o.jpg","is_closed":false,"url":"https://www.yelp.com/biz/pho-hoa-noodle-soup-richmond-2?adjust_creative=bYV95bS5H-NQaBwQZNMeSQ&utm_campaign=yelp_api_v3&utm_medium=api_v3_business_search&utm_source=bYV95bS5H-NQaBwQZNMeSQ","review_count":58,"categories":[{"alias":"vietnamese","title":"Vietnamese"}],"rating":2,"coordinates":{"latitude":49.1781781,"longitude":-123.1291034},"transactions":[],"price":"$","location":{"address1":"8500 Alexandra Road","address2":"","address3":"","city":"Richmond","zip_code":"V6X 1C4","country":"CA","state":"BC","display_address":["8500 Alexandra Road","Richmond, BC V6X 1C4","Canada"]},"phone":"+16042702827","display_phone":"+1 604-270-2827","distance":4556.1258826605745},{"id":"sFAfpvuv-Jifakj0Hi01gA","alias":"kanpeki-teppanyaki-and-seafood-bar-richmond-3","name":"Kanpeki Teppanyaki & Seafood Bar","image_url":"https://s3-media3.fl.yelpcdn.com/bphoto/80vnZMcvcxvIQSaUY2N49A/o.jpg","is_closed":false,"url":"https://www.yelp.com/biz/kanpeki-teppanyaki-and-seafood-bar-richmond-3?adjust_creative=bYV95bS5H-NQaBwQZNMeSQ&utm_campaign=yelp_api_v3&utm_medium=api_v3_business_search&utm_source=bYV95bS5H-NQaBwQZNMeSQ","review_count":13,"categories":[{"alias":"japanese","title":"Japanese"},{"alias":"steak","title":"Steakhouses"},{"alias":"seafood","title":"Seafood"}],"rating":3.5,"coordinates":{"latitude":49.1787958,"longitude":-123.1314609},"transactions":[],"price":"$$$","location":{"address1":"140 - 8351 Alexandra Rd","address2":"","address3":"","city":"Richmond","zip_code":"V6X 1C3","country":"CA","state":"BC","display_address":["140 - 8351 Alexandra Rd","Richmond, BC V6X 1C3","Canada"]},"phone":"+16048211323","display_phone":"+1 604-821-1323","distance":4444.794591895011},{"id":"kz-M789uRgtZUl2NFPH9rA","alias":"double-east-cuisine-richmond-2","name":"Double East Cuisine","image_url":"https://s3-media2.fl.yelpcdn.com/bphoto/SSCrmTNJzaTU4wDV40tVFQ/o.jpg","is_closed":false,"url":"https://www.yelp.com/biz/double-east-cuisine-richmond-2?adjust_creative=bYV95bS5H-NQaBwQZNMeSQ&utm_campaign=yelp_api_v3&utm_medium=api_v3_business_search&utm_source=bYV95bS5H-NQaBwQZNMeSQ","review_count":19,"categories":[{"alias":"seafood","title":"Seafood"},{"alias":"chinese","title":"Chinese"}],"rating":3,"coordinates":{"latitude":49.183023,"longitude":-123.135604},"transactions":[],"price":"$$","location":{"address1":"4200 No 3 Road","address2":"Suite 190","address3":"","city":"Richmond","zip_code":"V6X 2C2","country":"CA","state":"BC","display_address":["4200 No 3 Road","Suite 190","Richmond, BC V6X 2C2","Canada"]},"phone":"+16042762716","display_phone":"+1 604-276-2716","distance":4346.5706628688695},{"id":"l5Vqa-vIRfKl1raShwA9Cg","alias":"lu-charcoal-grill-richmond","name":"Lu Charcoal Grill","image_url":"https://s3-media3.fl.yelpcdn.com/bphoto/_XJj6UEC91SH98jVC9YrRw/o.jpg","is_closed":false,"url":"https://www.yelp.com/biz/lu-charcoal-grill-richmond?adjust_creative=bYV95bS5H-NQaBwQZNMeSQ&utm_campaign=yelp_api_v3&utm_medium=api_v3_business_search&utm_source=bYV95bS5H-NQaBwQZNMeSQ","review_count":15,"categories":[{"alias":"chinese","title":"Chinese"},{"alias":"sportsbars","title":"Sports Bars"}],"rating":3,"coordinates":{"latitude":49.1800883459181,"longitude":-123.135372530006},"transactions":[],"price":"$","location":{"address1":"100-8031 Leslie Road","address2":null,"address3":"","city":"Richmond","zip_code":"V6X 1E4","country":"CA","state":"BC","display_address":["100-8031 Leslie Road","Richmond, BC V6X 1E4","Canada"]},"phone":"+16042853399","display_phone":"+1 604-285-3399","distance":4228.710232837442},{"id":"JUPRtT_Lef6MNTLQ0RlXCg","alias":"mcdonalds-richmond-46","name":"McDonald's","image_url":"https://s3-media3.fl.yelpcdn.com/bphoto/ygR0BgASRAltx6ZcIFXO8A/o.jpg","is_closed":false,"url":"https://www.yelp.com/biz/mcdonalds-richmond-46?adjust_creative=bYV95bS5H-NQaBwQZNMeSQ&utm_campaign=yelp_api_v3&utm_medium=api_v3_business_search&utm_source=bYV95bS5H-NQaBwQZNMeSQ","review_count":26,"categories":[{"alias":"hotdogs","title":"Fast Food"},{"alias":"burgers","title":"Burgers"}],"rating":2.5,"coordinates":{"latitude":49.161632939461,"longitude":-123.13589096593},"transactions":[],"price":"$","location":{"address1":"7120 No.3 Road","address2":"","address3":"","city":"Richmond","zip_code":"V6Y 2C6","country":"CA","state":"BC","display_address":["7120 No.3 Road","Richmond, BC V6Y 2C6","Canada"]},"phone":"+16047181045","display_phone":"+1 604-718-1045","distance":3909.636193295119},{"id":"Dx3D_R5_V2mztv0-U9dpQg","alias":"mcdonalds-richmond-40","name":"McDonald's","image_url":"https://s3-media1.fl.yelpcdn.com/bphoto/veqkR5UQbiA6kzfs8CZNlg/o.jpg","is_closed":false,"url":"https://www.yelp.com/biz/mcdonalds-richmond-40?adjust_creative=bYV95bS5H-NQaBwQZNMeSQ&utm_campaign=yelp_api_v3&utm_medium=api_v3_business_search&utm_source=bYV95bS5H-NQaBwQZNMeSQ","review_count":19,"categories":[{"alias":"hotdogs","title":"Fast Food"},{"alias":"burgers","title":"Burgers"},{"alias":"coffee","title":"Coffee & Tea"}],"rating":2,"coordinates":{"latitude":49.1537398392513,"longitude":-123.158545702596},"transactions":[],"price":"$","location":{"address1":"8140 No. 2 Rd","address2":"","address3":"","city":"Richmond","zip_code":"V7C 5J9","country":"CA","state":"BC","display_address":["8140 No. 2 Rd","Richmond, BC V7C 5J9","Canada"]},"phone":"+16043704750","display_phone":"+1 604-370-4750","distance":2606.5924791594884},{"id":"o9tPkQNf2jj3HyeEUPHW3A","alias":"wing-kee-restaurant-richmond","name":"Wing Kee Restaurant","image_url":"https://s3-media1.fl.yelpcdn.com/bphoto/B34CMEuxGcCMQEJYrQk3KA/o.jpg","is_closed":false,"url":"https://www.yelp.com/biz/wing-kee-restaurant-richmond?adjust_creative=bYV95bS5H-NQaBwQZNMeSQ&utm_campaign=yelp_api_v3&utm_medium=api_v3_business_search&utm_source=bYV95bS5H-NQaBwQZNMeSQ","review_count":30,"categories":[{"alias":"chinese","title":"Chinese"}],"rating":2,"coordinates":{"latitude":49.1622777570797,"longitude":-123.132605760414},"transactions":[],"price":"$$","location":{"address1":"8260 Granville Ave","address2":"","address3":"","city":"Richmond","zip_code":"V6Y 1P3","country":"CA","state":"BC","display_address":["8260 Granville Ave","Richmond, BC V6Y 1P3","Canada"]},"phone":"+16042701825","display_phone":"+1 604-270-1825","distance":4139.4855619390855},{"id":"S0kRTbdV4qjXh_nUd0uT_w","alias":"tim-hortons-richmond-12","name":"Tim Hortons","image_url":"https://s3-media3.fl.yelpcdn.com/bphoto/GS2aOv0a30Y_SWjvDWmdZA/o.jpg","is_closed":false,"url":"https://www.yelp.com/biz/tim-hortons-richmond-12?adjust_creative=bYV95bS5H-NQaBwQZNMeSQ&utm_campaign=yelp_api_v3&utm_medium=api_v3_business_search&utm_source=bYV95bS5H-NQaBwQZNMeSQ","review_count":9,"categories":[{"alias":"cafes","title":"Cafes"},{"alias":"hotdogs","title":"Fast Food"}],"rating":2.5,"coordinates":{"latitude":49.19188478348511,"longitude":-123.16894924367661},"transactions":[],"price":"$","location":{"address1":"5000 Miller Road","address2":"Suite 109","address3":"","city":"Richmond","zip_code":"V7B 1K6","country":"CA","state":"BC","display_address":["5000 Miller Road","Suite 109","Richmond, BC V7B 1K6","Canada"]},"phone":"","display_phone":"","distance":3255.0613531047206},{"id":"CSXPqFn64hpPHgzeBxTsQw","alias":"burger-king-richmond-19","name":"Burger King","image_url":"https://s3-media4.fl.yelpcdn.com/bphoto/wSnjpc-ffbmdtGpkLcQpBQ/o.jpg","is_closed":false,"url":"https://www.yelp.com/biz/burger-king-richmond-19?adjust_creative=bYV95bS5H-NQaBwQZNMeSQ&utm_campaign=yelp_api_v3&utm_medium=api_v3_business_search&utm_source=bYV95bS5H-NQaBwQZNMeSQ","review_count":30,"categories":[{"alias":"burgers","title":"Burgers"},{"alias":"hotdogs","title":"Fast Food"}],"rating":2,"coordinates":{"latitude":49.1911949,"longitude":-123.1293886},"transactions":[],"price":"$","location":{"address1":"8575 Sea Island Wy","address2":"","address3":"","city":"Richmond","zip_code":"V6X 0A8","country":"CA","state":"BC","display_address":["8575 Sea Island Wy","Richmond, BC V6X 0A8","Canada"]},"phone":"+16042472510","display_phone":"+1 604-247-2510","distance":5236.02054010225},{"id":"hiLM2SF7L6PdERU5uQWa4Q","alias":"mcdonalds-vancouver-47","name":"McDonald's","image_url":"https://s3-media1.fl.yelpcdn.com/bphoto/pLUFlGO7y8TVCGezjZFaEg/o.jpg","is_closed":false,"url":"https://www.yelp.com/biz/mcdonalds-vancouver-47?adjust_creative=bYV95bS5H-NQaBwQZNMeSQ&utm_campaign=yelp_api_v3&utm_medium=api_v3_business_search&utm_source=bYV95bS5H-NQaBwQZNMeSQ","review_count":17,"categories":[{"alias":"hotdogs","title":"Fast Food"},{"alias":"burgers","title":"Burgers"}],"rating":3,"coordinates":{"latitude":49.20616,"longitude":-123.1255},"transactions":[],"price":"$","location":{"address1":"830 SW Marine Dr","address2":"","address3":"","city":"Vancouver","zip_code":"V6P 5Y8","country":"CA","state":"BC","display_address":["830 SW Marine Dr","Vancouver, BC V6P 5Y8","Canada"]},"phone":"+16047181177","display_phone":"+1 604-718-1177","distance":6444.0174605878965},{"id":"VferzZy8ZzAiLPtelZjzgg","alias":"a-and-w-richmond-2","name":"A&W","image_url":"https://s3-media3.fl.yelpcdn.com/bphoto/SGfcG1Hr2IPOIBOqcSRHFQ/o.jpg","is_closed":false,"url":"https://www.yelp.com/biz/a-and-w-richmond-2?adjust_creative=bYV95bS5H-NQaBwQZNMeSQ&utm_campaign=yelp_api_v3&utm_medium=api_v3_business_search&utm_source=bYV95bS5H-NQaBwQZNMeSQ","review_count":14,"categories":[{"alias":"hotdogs","title":"Fast Food"},{"alias":"burgers","title":"Burgers"}],"rating":2.5,"coordinates":{"latitude":49.153957,"longitude":-123.125005},"transactions":[],"price":"$","location":{"address1":"8140 Garden City Road","address2":"","address3":"","city":"Richmond","zip_code":"V6Y 2N9","country":"CA","state":"BC","display_address":["8140 Garden City Road","Richmond, BC V6Y 2N9","Canada"]},"phone":"+16042727773","display_phone":"+1 604-272-7773","distance":4855.982029055059},{"id":"_DH4NCfIV1HxS886X9JfRg","alias":"tanlu-grill-richmond","name":"Tanlu Grill","image_url":"https://s3-media4.fl.yelpcdn.com/bphoto/Gh8XP0ohVzGyJMHeU2lycA/o.jpg","is_closed":false,"url":"https://www.yelp.com/biz/tanlu-grill-richmond?adjust_creative=bYV95bS5H-NQaBwQZNMeSQ&utm_campaign=yelp_api_v3&utm_medium=api_v3_business_search&utm_source=bYV95bS5H-NQaBwQZNMeSQ","review_count":8,"categories":[{"alias":"bbq","title":"Barbeque"},{"alias":"korean","title":"Korean"},{"alias":"chinese","title":"Chinese"}],"rating":3,"coordinates":{"latitude":49.1777388,"longitude":-123.1215149},"transactions":[],"location":{"address1":"1430-4771 Mcclelland Road","address2":null,"address3":"","city":"Richmond","zip_code":"V6X 0M5","country":"CA","state":"BC","display_address":["1430-4771 Mcclelland Road","Richmond, BC V6X 0M5","Canada"]},"phone":"+16043702833","display_phone":"+1 604-370-2833","distance":5045.531958575385},{"id":"UrLwyLCashnoV4exqYVe8w","alias":"subway-richmond-101","name":"Subway","image_url":"https://s3-media4.fl.yelpcdn.com/bphoto/Hu-Kui-GPxrt2R7Qf8Qeug/o.jpg","is_closed":false,"url":"https://www.yelp.com/biz/subway-richmond-101?adjust_creative=bYV95bS5H-NQaBwQZNMeSQ&utm_campaign=yelp_api_v3&utm_medium=api_v3_business_search&utm_source=bYV95bS5H-NQaBwQZNMeSQ","review_count":3,"categories":[{"alias":"sandwiches","title":"Sandwiches"},{"alias":"hotdogs","title":"Fast Food"}],"rating":4,"coordinates":{"latitude":49.1553651,"longitude":-123.1238682},"transactions":[],"price":"$$","location":{"address1":"9100 Blundell Road","address2":"Suite 150","address3":"","city":"Richmond","zip_code":"V6Y 3X9","country":"CA","state":"BC","display_address":["9100 Blundell Road","Suite 150","Richmond, BC V6Y 3X9","Canada"]},"phone":"+16042447170","display_phone":"+1 604-244-7170","distance":4908.429449221434},{"id":"O9tj2qIB0ZIW_veSg4G5rA","alias":"wang-shun-ge-grill-fish-richmond","name":"Wang Shun Ge Grill Fish","image_url":"https://s3-media3.fl.yelpcdn.com/bphoto/Ir_l7ba1PyN10iIGkwcJuA/o.jpg","is_closed":false,"url":"https://www.yelp.com/biz/wang-shun-ge-grill-fish-richmond?adjust_creative=bYV95bS5H-NQaBwQZNMeSQ&utm_campaign=yelp_api_v3&utm_medium=api_v3_business_search&utm_source=bYV95bS5H-NQaBwQZNMeSQ","review_count":3,"categories":[{"alias":"chinese","title":"Chinese"}],"rating":3.5,"coordinates":{"latitude":49.1781848,"longitude":-123.129567},"transactions":[],"location":{"address1":"165-8460 Alexandra Road","address2":null,"address3":"","city":"Richmond","zip_code":"V6X 3L4","country":"CA","state":"BC","display_address":["165-8460 Alexandra Road","Richmond, BC V6X 3L4","Canada"]},"phone":"+16044475588","display_phone":"+1 604-447-5588","distance":4524.660138425182},{"id":"m4gwfeL9t2M4fHRoRLIAeA","alias":"river-chinese-cuisine-richmond","name":"River Chinese Cuisine","image_url":"https://s3-media4.fl.yelpcdn.com/bphoto/QUKiKJyy73tUT8GHOPqX9A/o.jpg","is_closed":false,"url":"https://www.yelp.com/biz/river-chinese-cuisine-richmond?adjust_creative=bYV95bS5H-NQaBwQZNMeSQ&utm_campaign=yelp_api_v3&utm_medium=api_v3_business_search&utm_source=bYV95bS5H-NQaBwQZNMeSQ","review_count":7,"categories":[{"alias":"chinese","title":"Chinese"}],"rating":2.5,"coordinates":{"latitude":49.1689414978027,"longitude":-123.136672973633},"transactions":[],"location":{"address1":"6091 Number 3 Road","address2":"","address3":null,"city":"Richmond","zip_code":"V6Y 2B1","country":"CA","state":"BC","display_address":["6091 Number 3 Road","Richmond, BC V6Y 2B1","Canada"]},"phone":"+16042958189","display_phone":"+1 604-295-8189","distance":3840.2221595778947},{"id":"npsKB7WZEgSqq_urxy9C9w","alias":"tim-hortons-richmond-14","name":"Tim Hortons","image_url":"https://s3-media1.fl.yelpcdn.com/bphoto/MVGajgjiuA_02D-VWEh_FA/o.jpg","is_closed":false,"url":"https://www.yelp.com/biz/tim-hortons-richmond-14?adjust_creative=bYV95bS5H-NQaBwQZNMeSQ&utm_campaign=yelp_api_v3&utm_medium=api_v3_business_search&utm_source=bYV95bS5H-NQaBwQZNMeSQ","review_count":1,"categories":[{"alias":"hotdogs","title":"Fast Food"}],"rating":5,"coordinates":{"latitude":49.1978633764126,"longitude":-123.174346525468},"transactions":[],"location":{"address1":"3880 Grant McConachie Way","address2":"Room 4170","address3":null,"city":"Richmond","zip_code":"V7B 0A5","country":"CA","state":"BC","display_address":["3880 Grant McConachie Way","Room 4170","Richmond, BC V7B 0A5","Canada"]},"phone":"+16042313731","display_phone":"+1 604-231-3731","distance":3726.6008700790467},{"id":"pod-xPN_L-PPFryRWQ4Rjw","alias":"the-meat-up-richmond-2","name":"The Meat Up","image_url":"https://s3-media2.fl.yelpcdn.com/bphoto/5uODQfkYfsj_wmxim-tmpQ/o.jpg","is_closed":false,"url":"https://www.yelp.com/biz/the-meat-up-richmond-2?adjust_creative=bYV95bS5H-NQaBwQZNMeSQ&utm_campaign=yelp_api_v3&utm_medium=api_v3_business_search&utm_source=bYV95bS5H-NQaBwQZNMeSQ","review_count":7,"categories":[{"alias":"bbq","title":"Barbeque"},{"alias":"chinese","title":"Chinese"}],"rating":2.5,"coordinates":{"latitude":49.1873511890455,"longitude":-123.133191503584},"transactions":[],"location":{"address1":"3850 No 3 Road","address2":"","address3":null,"city":"Richmond","zip_code":"V6X 2C1","country":"CA","state":"BC","display_address":["3850 No 3 Road","Richmond, BC V6X 2C1","Canada"]},"phone":"+16043704870","display_phone":"+1 604-370-4870","distance":4729.202197284691},{"id":"61uMCN1WQEGUnYSN-fj2hg","alias":"home-bbq-richmond","name":"Home BBQ","image_url":"https://s3-media1.fl.yelpcdn.com/bphoto/Sbc4yi-6IB1nVbF2DPaqlQ/o.jpg","is_closed":false,"url":"https://www.yelp.com/biz/home-bbq-richmond?adjust_creative=bYV95bS5H-NQaBwQZNMeSQ&utm_campaign=yelp_api_v3&utm_medium=api_v3_business_search&utm_source=bYV95bS5H-NQaBwQZNMeSQ","review_count":4,"categories":[{"alias":"bbq","title":"Barbeque"},{"alias":"chinese","title":"Chinese"}],"rating":3,"coordinates":{"latitude":49.1721249,"longitude":-123.132941},"transactions":[],"location":{"address1":"8291 Ackroyd Road","address2":"Suite 150","address3":"","city":"Richmond","zip_code":"V6X 3K5","country":"CA","state":"BC","display_address":["8291 Ackroyd Road","Suite 150","Richmond, BC V6X 3K5","Canada"]},"phone":"+16042490868","display_phone":"+1 604-249-0868","distance":4178.864565759963},{"id":"O5nsEejA12DdMwRk0BKvKQ","alias":"cheungs-chiu-chow-restaurant-richmond","name":"Cheung's Chiu Chow Restaurant","image_url":"https://s3-media2.fl.yelpcdn.com/bphoto/PmduXSE0RtnfqP7WmZXicA/o.jpg","is_closed":false,"url":"https://www.yelp.com/biz/cheungs-chiu-chow-restaurant-richmond?adjust_creative=bYV95bS5H-NQaBwQZNMeSQ&utm_campaign=yelp_api_v3&utm_medium=api_v3_business_search&utm_source=bYV95bS5H-NQaBwQZNMeSQ","review_count":8,"categories":[{"alias":"chinese","title":"Chinese"}],"rating":2,"coordinates":{"latitude":49.1787,"longitude":-123.129832},"transactions":[],"price":"$$","location":{"address1":"8391 Alexandra Rodd","address2":"Suite 2150","address3":"","city":"Richmond","zip_code":"V6X 1C3","country":"CA","state":"BC","display_address":["8391 Alexandra Rodd","Suite 2150","Richmond, BC V6X 1C3","Canada"]},"phone":"+17788988428","display_phone":"+1 778-898-8428","distance":4553.58179984639},{"id":"pw-bEWfUCbQaay38lf1v6g","alias":"subway-richmond-29","name":"Subway","image_url":"https://s3-media3.fl.yelpcdn.com/bphoto/NtDtitOCHq_8_e7cPuh1nw/o.jpg","is_closed":false,"url":"https://www.yelp.com/biz/subway-richmond-29?adjust_creative=bYV95bS5H-NQaBwQZNMeSQ&utm_campaign=yelp_api_v3&utm_medium=api_v3_business_search&utm_source=bYV95bS5H-NQaBwQZNMeSQ","review_count":5,"categories":[{"alias":"hotdogs","title":"Fast Food"},{"alias":"sandwiches","title":"Sandwiches"}],"rating":3,"coordinates":{"latitude":49.1917154289305,"longitude":-123.128562567762},"transactions":[],"price":"$","location":{"address1":"8555 Sea Island Way","address2":"Unit 600","address3":"","city":"Richmond","zip_code":"V6V 1J4","country":"CA","state":"BC","display_address":["8555 Sea Island Way","Unit 600","Richmond, BC V6V 1J4","Canada"]},"phone":"+16042788848","display_phone":"+1 604-278-8848","distance":5270.841992448753},{"id":"jVupaKr2OOCqvu4gWC_0iw","alias":"subway-richmond-102","name":"Subway","image_url":"https://s3-media2.fl.yelpcdn.com/bphoto/mzNEFEN6zuexQW--wncgwA/o.jpg","is_closed":false,"url":"https://www.yelp.com/biz/subway-richmond-102?adjust_creative=bYV95bS5H-NQaBwQZNMeSQ&utm_campaign=yelp_api_v3&utm_medium=api_v3_business_search&utm_source=bYV95bS5H-NQaBwQZNMeSQ","review_count":2,"categories":[{"alias":"sandwiches","title":"Sandwiches"},{"alias":"hotdogs","title":"Fast Food"}],"rating":3,"coordinates":{"latitude":49.1549451247838,"longitude":-123.157938409068},"transactions":[],"location":{"address1":"Blundell Centre","address2":"6060 Blundell Road, Suite 110","address3":"","city":"Richmond","zip_code":"V7C 1H8","country":"CA","state":"BC","display_address":["Blundell Centre","6060 Blundell Road, Suite 110","Richmond, BC V7C 1H8","Canada"]},"phone":"+16042758284","display_phone":"+1 604-275-8284","distance":2579.1420990558463},{"id":"HmNULTrknf-x7L_aaQOR2w","alias":"subway-richmond-84","name":"Subway","image_url":"https://s3-media2.fl.yelpcdn.com/bphoto/hU_WySoSwZXgnt0KQbhqjQ/o.jpg","is_closed":false,"url":"https://www.yelp.com/biz/subway-richmond-84?adjust_creative=bYV95bS5H-NQaBwQZNMeSQ&utm_campaign=yelp_api_v3&utm_medium=api_v3_business_search&utm_source=bYV95bS5H-NQaBwQZNMeSQ","review_count":3,"categories":[{"alias":"sandwiches","title":"Sandwiches"},{"alias":"hotdogs","title":"Fast Food"}],"rating":2,"coordinates":{"latitude":49.181341119254,"longitude":-123.16967189312},"transactions":[],"price":"$","location":{"address1":"YVR Airport International Terminal","address2":"","address3":"","city":"Richmond","zip_code":"V7B 1B8","country":"CA","state":"BC","display_address":["YVR Airport International Terminal","Richmond, BC V7B 1B8","Canada"]},"phone":"+16042071232","display_phone":"+1 604-207-1232","distance":2239.972132988235},{"id":"NuS_kUoThXsAGgGJOrzwaw","alias":"subway-richmond-38","name":"Subway","image_url":"https://s3-media4.fl.yelpcdn.com/bphoto/yuLTi5pPtUIZBBlreh_3Vw/o.jpg","is_closed":false,"url":"https://www.yelp.com/biz/subway-richmond-38?adjust_creative=bYV95bS5H-NQaBwQZNMeSQ&utm_campaign=yelp_api_v3&utm_medium=api_v3_business_search&utm_source=bYV95bS5H-NQaBwQZNMeSQ","review_count":4,"categories":[{"alias":"sandwiches","title":"Sandwiches"},{"alias":"hotdogs","title":"Fast Food"}],"rating":2.5,"coordinates":{"latitude":49.1399293,"longitude":-123.1368649},"transactions":[],"location":{"address1":"Broadmoor Shopping Centre","address2":"10111 No. 3 Road ,Suite 134","address3":"","city":"Richmond","zip_code":"V6X 1A1","country":"CA","state":"BC","display_address":["Broadmoor Shopping Centre","10111 No. 3 Road ,Suite 134","Richmond, BC V6X 1A1","Canada"]},"phone":"+16042723252","display_phone":"+1 604-272-3252","distance":4697.9994819138265}],"total":46,"region":{"center":{"longitude":-123.18928160000002,"latitude":49.1658026}}}